{
"type": "FeatureCollection",
"crs": { "type": "name", "properties": { "name": "urn:ogc:def:crs:OGC:1.3:CRS84" } },
"features": [
{ "type": "Feature", "properties": { "ogc_fid": 1, "cartodb_id": 23, "type": "medium_airport", "name": "Makurdi Airport", "elevation_": 371, "region": "northcentral", "municipali": "Makurdi", "iata_code": "MDI", "state": "benue" }, "geometry": { "type": "Point", "coordinates": [ 8.61464881, 7.70349635 ] } },
{ "type": "Feature", "properties": { "ogc_fid": 2, "cartodb_id": 2, "type": "small_airport", "name": "Ajaokuta Airport", "elevation_": 620, "region": "northcentral", "municipali": "Ajaokuta", "iata_code": null, "state": "kogi" }, "geometry": { "type": "Point", "coordinates": [ 6.4618735, 7.45683739 ] } },
{ "type": "Feature", "properties": { "ogc_fid": 3, "cartodb_id": 10, "type": "medium_airport", "name": "Asaba International Airport", "elevation_": 305, "region": "southsouth", "municipali": "Asaba", "iata_code": "ABB", "state": "delta" }, "geometry": { "type": "Point", "coordinates": [ 6.65962713, 6.20281347 ] } },
{ "type": "Feature", "properties": { "ogc_fid": 4, "cartodb_id": 3, "type": "small_airport", "name": "Kaduna Old Airport", "elevation_": 2126, "region": "northwest", "municipali": "Kaduna", "iata_code": null, "state": "kaduna" }, "geometry": { "type": "Point", "coordinates": [ 7.44944363, 10.59878284 ] } },
{ "type": "Feature", "properties": { "ogc_fid": 5, "cartodb_id": 17, "type": "medium_airport", "name": "Ilorin International Airport", "elevation_": 1126, "region": "southwest", "municipali": "Ilorin", "iata_code": "ILR", "state": "kwara" }, "geometry": { "type": "Point", "coordinates": [ 4.4946963, 8.4399024 ] } },
{ "type": "Feature", "properties": { "ogc_fid": 6, "cartodb_id": 11, "type": "medium_airport", "name": "Benin Airport", "elevation_": 258, "region": "southsouth", "municipali": "Benin", "iata_code": "BNI", "state": "edo" }, "geometry": { "type": "Point", "coordinates": [ 5.60025553, 6.31647216 ] } },
{ "type": "Feature", "properties": { "ogc_fid": 7, "cartodb_id": 5, "type": "small_airport", "name": "Eket Airport", "elevation_": 42, "region": "southsouth", "municipali": "Eket ", "iata_code": null, "state": "akwa ibom" }, "geometry": { "type": "Point", "coordinates": [ 7.94975537, 4.64151236 ] } },
{ "type": "Feature", "properties": { "ogc_fid": 8, "cartodb_id": 12, "type": "small_airport", "name": "Bida Airport", "elevation_": 450, "region": "northcentral", "municipali": "Bida", "iata_code": null, "state": "niger" }, "geometry": { "type": "Point", "coordinates": [ 6.01775381, 9.0997502 ] } },
{ "type": "Feature", "properties": { "ogc_fid": 9, "cartodb_id": 18, "type": "medium_airport", "name": "Sam Mbakwe International Airport", "elevation_": 373, "region": "southeast", "municipali": "Owerri", "iata_code": "QOW", "state": "imo" }, "geometry": { "type": "Point", "coordinates": [ 7.20675829, 5.42646691 ] } },
{ "type": "Feature", "properties": { "ogc_fid": 10, "cartodb_id": 13, "type": "medium_airport", "name": "Margaret Ekpo International Airport", "elevation_": 210, "region": "southsouth", "municipali": "Calabar", "iata_code": "CBQ", "state": "cross river" }, "geometry": { "type": "Point", "coordinates": [ 8.34790964, 4.97538311 ] } },
{ "type": "Feature", "properties": { "ogc_fid": 11, "cartodb_id": 6, "type": "small_airport", "name": "Escravos Airport", "elevation_": 6, "region": "southsouth", "municipali": "Warri", "iata_code": null, "state": "delta" }, "geometry": { "type": "Point", "coordinates": [ 5.19314079, 5.62474787 ] } },
{ "type": "Feature", "properties": { "ogc_fid": 12, "cartodb_id": 24, "type": "large_airport", "name": "Murtala Muhammed International Airport", "elevation_": 135, "region": "southwest", "municipali": "Lagos", "iata_code": "LOS", "state": "lagos" }, "geometry": { "type": "Point", "coordinates": [ 3.32195139, 6.57689034 ] } },
{ "type": "Feature", "properties": { "ogc_fid": 13, "cartodb_id": 7, "type": "small_airport", "name": "Katsina Airport", "elevation_": 1660, "region": "northwest", "municipali": "Katsina", "iata_code": "DKA", "state": "kaduna" }, "geometry": { "type": "Point", "coordinates": [ 7.66118656, 13.00789633 ] } },
{ "type": "Feature", "properties": { "ogc_fid": 14, "cartodb_id": 14, "type": "medium_airport", "name": "Akanu Ibiam International Airport", "elevation_": 466, "region": "southeast", "municipali": "Enegu", "iata_code": "ENU", "state": "enugu" }, "geometry": { "type": "Point", "coordinates": [ 7.5626842, 6.47377402 ] } },
{ "type": "Feature", "properties": { "ogc_fid": 15, "cartodb_id": 8, "type": "large_airport", "name": "Nnamdi Azikiwe International Airport", "elevation_": 1123, "region": "northcentral", "municipali": "Abuja", "iata_code": "ABV", "state": "fct" }, "geometry": { "type": "Point", "coordinates": [ 7.26390298, 9.0065289 ] } },
{ "type": "Feature", "properties": { "ogc_fid": 16, "cartodb_id": 19, "type": "medium_airport", "name": "Yakubu Gowon Airport", "elevation_": 4232, "region": "northcentral", "municipali": "Jos", "iata_code": "JOS", "state": "plateau" }, "geometry": { "type": "Point", "coordinates": [ 8.86975797, 9.63962282 ] } },
{ "type": "Feature", "properties": { "ogc_fid": 17, "cartodb_id": 9, "type": "medium_airport", "name": "Akure Airport", "elevation_": 1100, "region": "southwest", "municipali": "Akure", "iata_code": "AKR", "state": "ondo" }, "geometry": { "type": "Point", "coordinates": [ 5.30177167, 7.24631951 ] } },
{ "type": "Feature", "properties": { "ogc_fid": 18, "cartodb_id": 15, "type": "medium_airport", "name": "Gusau Airport", "elevation_": 1520, "region": "northwest", "municipali": "Gusau", "iata_code": "QUS", "state": "zamfara" }, "geometry": { "type": "Point", "coordinates": [ 6.69685988, 12.17172493 ] } },
{ "type": "Feature", "properties": { "ogc_fid": 19, "cartodb_id": 4, "type": "small_airport", "name": "Bajoga Northeast Airport", "elevation_": 1000, "region": "northeast", "municipali": "Bajoga", "iata_code": null, "state": "gombe" }, "geometry": { "type": "Point", "coordinates": [ 11.50186556, 10.91980253 ] } },
{ "type": "Feature", "properties": { "ogc_fid": 20, "cartodb_id": 16, "type": "medium_airport", "name": "Ibadan Airport", "elevation_": 725, "region": "southwest", "municipali": "Ibadan", "iata_code": "IBA", "state": "oyo" }, "geometry": { "type": "Point", "coordinates": [ 3.97911238, 7.36205285 ] } },
{ "type": "Feature", "properties": { "ogc_fid": 21, "cartodb_id": 20, "type": "medium_airport", "name": "Kaduna Airport", "elevation_": 2073, "region": "northwest", "municipali": "Kaduna", "iata_code": "KAD", "state": "kaduna" }, "geometry": { "type": "Point", "coordinates": [ 7.32084586, 10.69589214 ] } },
{ "type": "Feature", "properties": { "ogc_fid": 22, "cartodb_id": 25, "type": "medium_airport", "name": "Minna Airport", "elevation_": 834, "region": "northcentral", "municipali": "Minna", "iata_code": "MXJ", "state": "niger" }, "geometry": { "type": "Point", "coordinates": [ 6.46300738, 9.65196957 ] } },
{ "type": "Feature", "properties": { "ogc_fid": 23, "cartodb_id": 21, "type": "medium_airport", "name": "Mallam Aminu International Airport", "elevation_": 1562, "region": "northwest", "municipali": "Kano", "iata_code": "KAN", "state": "kano" }, "geometry": { "type": "Point", "coordinates": [ 8.52533948, 12.04760938 ] } },
{ "type": "Feature", "properties": { "ogc_fid": 24, "cartodb_id": 22, "type": "medium_airport", "name": "Maiduguri International Airport", "elevation_": 1099, "region": "northeast", "municipali": "Maiduguri", "iata_code": "MIU", "state": "borno" }, "geometry": { "type": "Point", "coordinates": [ 13.08154046, 11.8552816 ] } },
{ "type": "Feature", "properties": { "ogc_fid": 25, "cartodb_id": 26, "type": "small_airport", "name": "Oshogbo Airport", "elevation_": 997, "region": "southwest", "municipali": "Oshogbo", "iata_code": null, "state": "osun" }, "geometry": { "type": "Point", "coordinates": [ 4.48377516, 7.78263104 ] } },
{ "type": "Feature", "properties": { "ogc_fid": 26, "cartodb_id": 27, "type": "medium_airport", "name": "Port Harcourt International Airport", "elevation_": 87, "region": "southsouth", "municipali": "Port Harcourt", "iata_code": "PHC", "state": "rivers" }, "geometry": { "type": "Point", "coordinates": [ 6.95032228, 5.01485854 ] } },
{ "type": "Feature", "properties": { "ogc_fid": 27, "cartodb_id": 28, "type": "medium_airport", "name": "Sadiq Abubakar III International Airport", "elevation_": 1010, "region": "northwest", "municipali": "Sokoto", "iata_code": "SKO", "state": "sokoto" }, "geometry": { "type": "Point", "coordinates": [ 5.20796652, 12.91639516 ] } },
{ "type": "Feature", "properties": { "ogc_fid": 28, "cartodb_id": 29, "type": "medium_airport", "name": "Yola Airport", "elevation_": 599, "region": "northeast", "municipali": "Yola", "iata_code": "YOL", "state": "adamawa" }, "geometry": { "type": "Point", "coordinates": [ 12.4310462, 9.25730197 ] } },
{ "type": "Feature", "properties": { "ogc_fid": 29, "cartodb_id": 32, "type": "small_airport", "name": "Kainji", "elevation_": null, "region": "northcentral", "municipali": "Kainji", "iata_code": null, "state": "niger" }, "geometry": { "type": "Point", "coordinates": [ 4.48622334, 9.89249261 ] } },
{ "type": "Feature", "properties": { "ogc_fid": 30, "cartodb_id": 33, "type": "medium_airport", "name": "Gombe Lawanti International Airport", "elevation_": 1590, "region": "northeast", "municipali": "Gombe", "iata_code": "GMO", "state": "gombe" }, "geometry": { "type": "Point", "coordinates": [ 10.89706382, 10.29818171 ] } },
{ "type": "Feature", "properties": { "ogc_fid": 31, "cartodb_id": 34, "type": "small_airport", "name": "Port Harcourt City Airport", "elevation_": 57, "region": "southsouth", "municipali": "Port Harcourt", "iata_code": "PHG", "state": "rivers" }, "geometry": { "type": "Point", "coordinates": [ 7.02211961, 4.84546361 ] } },
{ "type": "Feature", "properties": { "ogc_fid": 32, "cartodb_id": 35, "type": "small_airport", "name": "Bauchi Airport", "elevation_": 1998, "region": "northeast", "municipali": "Bauchi", "iata_code": "BCU", "state": "bauchi" }, "geometry": { "type": "Point", "coordinates": [ 9.81736379, 10.29425052 ] } },
{ "type": "Feature", "properties": { "ogc_fid": 33, "cartodb_id": 36, "type": "medium_airport", "name": "Warri Airport", "elevation_": 242, "region": "southsouth", "municipali": "Warri", "iata_code": "QRW", "state": "delta" }, "geometry": { "type": "Point", "coordinates": [ 5.81853092, 5.59553423 ] } },
{ "type": "Feature", "properties": { "ogc_fid": 34, "cartodb_id": 1, "type": "small_airport", "name": "Shiroro Airport", "elevation_": 1305, "region": "northcentral", "municipali": "Shiroro", "iata_code": null, "state": "niger" }, "geometry": { "type": "Point", "coordinates": [ 6.81937256, 9.88447001 ] } },
{ "type": "Feature", "properties": { "ogc_fid": 35, "cartodb_id": 30, "type": "medium_airport", "name": "Zaria Airport", "elevation_": 2170, "region": "northwest", "municipali": "Zaria", "iata_code": "ZAR", "state": "kaduna" }, "geometry": { "type": "Point", "coordinates": [ 7.68654114, 11.13013053 ] } },
{ "type": "Feature", "properties": { "ogc_fid": 36, "cartodb_id": 31, "type": "closed", "name": "Agbara-Otor", "elevation_": null, "region": "southsouth", "municipali": "Ughelli", "iata_code": null, "state": "delta" }, "geometry": { "type": "Point", "coordinates": [ 6.05957819, 5.52861165 ] } }
]
}
